[
  {
    "id": 1,
    "nombre": "Carlos Gómez",
    "direccion": "Calle 10 #45-23, Medellín",
    "lat": 6.2308,
    "lng": -75.5636,
    "telefono": "3001234567",
    "prioridad": "alta",
    "tipoServicio": "Enfermería",
    "estado": "pendiente"
  },
  {
    "id": 2,
    "nombre": "María Rodríguez",
    "direccion": "Cra 70 #30-15, Medellín",
    "lat": 6.2445,
    "lng": -75.5902,
    "telefono": "3019876543",
    "prioridad": "media",
    "tipoServicio": "Fisioterapia",
    "estado": "pendiente"
  },
  {
    "id": 3,
    "nombre": "Luis Fernández",
    "direccion": "Calle 50 #80-10, Medellín",
    "lat": 6.2701,
    "lng": -75.6005,
    "telefono": "3025558899",
    "prioridad": "alta",
    "tipoServicio": "Medicina general",
    "estado": "pendiente"
  },
  {
    "id": 4,
    "nombre": "Ana Martínez",
    "direccion": "Cra 43A #1-50, Medellín",
    "lat": 6.2103,
    "lng": -75.5678,
    "telefono": "3002223344",
    "prioridad": "baja",
    "tipoServicio": "Control",
    "estado": "pendiente"
  },
  {
    "id": 5,
    "nombre": "Jorge Pérez",
    "direccion": "Calle 33 #65-40, Medellín",
    "lat": 6.2507,
    "lng": -75.5851,
    "telefono": "3014445566",
    "prioridad": "media",
    "tipoServicio": "Laboratorio",
    "estado": "pendiente"
  },
  {
    "id": 6,
    "nombre": "Sofía López",
    "direccion": "Calle 44 #65-12, Medellín",
    "lat": 6.2551,
    "lng": -75.5832,
    "telefono": "3001112233",
    "prioridad": "alta",
    "tipoServicio": "Enfermería",
    "estado": "pendiente"
  },
  {
    "id": 7,
    "nombre": "Andrés Torres",
    "direccion": "Cra 80 #48-22, Medellín",
    "lat": 6.2674,
    "lng": -75.5956,
    "telefono": "3012223344",
    "prioridad": "media",
    "tipoServicio": "Fisioterapia",
    "estado": "pendiente"
  },
  {
    "id": 8,
    "nombre": "Valentina Ruiz",
    "direccion": "Calle 30 #70-15, Medellín",
    "lat": 6.2401,
    "lng": -75.5908,
    "telefono": "3023334455",
    "prioridad": "baja",
    "tipoServicio": "Control",
    "estado": "pendiente"
  },
  {
    "id": 9,
    "nombre": "Daniel Castro",
    "direccion": "Cra 50 #20-10, Medellín",
    "lat": 6.2254,
    "lng": -75.5753,
    "telefono": "3034445566",
    "prioridad": "alta",
    "tipoServicio": "Medicina general",
    "estado": "pendiente"
  },
  {
    "id": 10,
    "nombre": "Laura Díaz",
    "direccion": "Calle 60 #45-33, Medellín",
    "lat": 6.2609,
    "lng": -75.5701,
    "telefono": "3045556677",
    "prioridad": "media",
    "tipoServicio": "Laboratorio",
    "estado": "pendiente"
  },
  {
    "id": 11,
    "nombre": "Camilo Vargas",
    "direccion": "Cra 65 #35-80, Medellín",
    "lat": 6.2483,
    "lng": -75.5859,
    "telefono": "3056667788",
    "prioridad": "baja",
    "tipoServicio": "Control",
    "estado": "pendiente"
  },
  {
    "id": 12,
    "nombre": "Paula Herrera",
    "direccion": "Calle 80 #70-20, Medellín",
    "lat": 6.2805,
    "lng": -75.5952,
    "telefono": "3067778899",
    "prioridad": "alta",
    "tipoServicio": "Enfermería",
    "estado": "pendiente"
  },
  {
    "id": 13,
    "nombre": "Felipe Rojas",
    "direccion": "Cra 45 #10-90, Medellín",
    "lat": 6.2156,
    "lng": -75.5657,
    "telefono": "3078889900",
    "prioridad": "media",
    "tipoServicio": "Fisioterapia",
    "estado": "pendiente"
  },
  {
    "id": 14,
    "nombre": "Natalia Gómez",
    "direccion": "Calle 25 #55-11, Medellín",
    "lat": 6.2359,
    "lng": -75.5802,
    "telefono": "3089990011",
    "prioridad": "baja",
    "tipoServicio": "Control",
    "estado": "pendiente"
  },
  {
    "id": 15,
    "nombre": "Juan Esteban Mejía",
    "direccion": "Cra 90 #50-30, Medellín",
    "lat": 6.2708,
    "lng": -75.6051,
    "telefono": "3090001122",
    "prioridad": "alta",
    "tipoServicio": "Medicina general",
    "estado": "pendiente"
  },
  {
    "id": 16,
    "nombre": "Diana Cardona",
    "direccion": "Calle 15 #60-25, Medellín",
    "lat": 6.2203,
    "lng": -75.5850,
    "telefono": "3101112233",
    "prioridad": "media",
    "tipoServicio": "Laboratorio",
    "estado": "pendiente"
  },
  {
    "id": 17,
    "nombre": "Sebastián Quintero",
    "direccion": "Cra 75 #40-10, Medellín",
    "lat": 6.2558,
    "lng": -75.5921,
    "telefono": "3112223344",
    "prioridad": "alta",
    "tipoServicio": "Enfermería",
    "estado": "pendiente"
  },
  {
    "id": 18,
    "nombre": "Carolina Restrepo",
    "direccion": "Calle 90 #80-15, Medellín",
    "lat": 6.2902,
    "lng": -75.6003,
    "telefono": "3123334455",
    "prioridad": "baja",
    "tipoServicio": "Control",
    "estado": "pendiente"
  },
  {
    "id": 19,
    "nombre": "Miguel Ángel Pérez",
    "direccion": "Cra 55 #25-60, Medellín",
    "lat": 6.2350,
    "lng": -75.5780,
    "telefono": "3134445566",
    "prioridad": "media",
    "tipoServicio": "Fisioterapia",
    "estado": "pendiente"
  },
  {
    "id": 20,
    "nombre": "Luisa Fernanda Arias",
    "direccion": "Calle 35 #85-12, Medellín",
    "lat": 6.2500,
    "lng": -75.6000,
    "telefono": "3145556677",
    "prioridad": "alta",
    "tipoServicio": "Medicina general",
    "estado": "pendiente"
  },
  {
    "id": 21,
    "nombre": "Esteban Morales",
    "direccion": "Cra 40 #5-10, Medellín",
    "lat": 6.2100,
    "lng": -75.5600,
    "telefono": "3156667788",
    "prioridad": "media",
    "tipoServicio": "Laboratorio",
    "estado": "pendiente"
  },
  {
    "id": 22,
    "nombre": "Sara Jiménez",
    "direccion": "Calle 70 #65-40, Medellín",
    "lat": 6.2700,
    "lng": -75.5900,
    "telefono": "3167778899",
    "prioridad": "baja",
    "tipoServicio": "Control",
    "estado": "pendiente"
  },
  {
    "id": 23,
    "nombre": "Tomás Velásquez",
    "direccion": "Cra 85 #55-25, Medellín",
    "lat": 6.2650,
    "lng": -75.6050,
    "telefono": "3178889900",
    "prioridad": "alta",
    "tipoServicio": "Enfermería",
    "estado": "pendiente"
  },
  {
    "id": 24,
    "nombre": "Juliana Castaño",
    "direccion": "Calle 20 #50-18, Medellín",
    "lat": 6.2300,
    "lng": -75.5700,
    "telefono": "3189990011",
    "prioridad": "media",
    "tipoServicio": "Fisioterapia",
    "estado": "pendiente"
  },
  {
    "id": 25,
    "nombre": "Ricardo Salazar",
    "direccion": "Cra 60 #30-50, Medellín",
    "lat": 6.2450,
    "lng": -75.5800,
    "telefono": "3190001122",
    "prioridad": "alta",
    "tipoServicio": "Medicina general",
    "estado": "pendiente"
  },
  {
    "id": 1777331266618,
    "nombre": "aaa",
    "direccion": "Pablo Tobon",
    "lat": 6.27694227028328,
    "lng": -75.57964253776353,
    "telefono": "aa",
    "tipoServicio": "control",
    "estado": "pendiente",
    "prioridad": "media"
  }
]